{
  "bookstores": [
    {
      "name": "Verbatim Books",
      "phoneNumber": "(619)501-7466",
      "storeHours": "Mon - Fri: 10:00 - 7:00",
      "priceRange": "$",
      "address": "3793 30th St San Diego CA 92104",
      "storePhotos": "http://mctrealestategroup.com/wp-content/uploads/2017/04/Verbatim-Bookstore.jpg",
      "accesibilityRating": "Accessibility Rating 6/10",
      "mapImage": "bookstoreBlack.png",
      "popups": [
        {
          "latitude": "-67.40486725663717",
          "longitude": "7.242008083777328",
          "popupText": "Elevator"
        },
        {
          "latitude": "-58.90398230088496",
          "longitude": "8.236068404371068",
          "popupText": "Elevator"
        },
        {
          "latitude": "-21.824336283185843",
          "longitude": "30.71584512039358",
          "popupText": "Hazard"
        },
        {
          "latitude": "-25.577433628318587",
          "longitude": "60",
          "popupText": "Restroom"
        },
        {
          "latitude": "-23.573893805309737",
          "longitude": "40",
          "popupText": "Closure"
        }
      ]
    },
    {
      "name": "Adams Avenue Book Store",
      "phoneNumber": "(619)281-3330",
      "storeHours": "Mon - Fri: 10:00 - 6:00",
      "priceRange": "$",
      "address": "3502 Adams Ave San Diego CA 92116",
      "storePhotos": "https://pics.librarything.com/picsizes/61/12/6112ebf293fd6dc63756a6541674259416c6743.jpg",
      "accesibilityRating": "Accessibility Rating 5/10",
      "mapImage": "bookstoreBlack.png",
      "popups": [
        {
          "latitude": "-58.38893805309735",
          "longitude": "34.47814517536207",
          "popupText": "Escalator Up"
        }
      ]
    },
    {
      "name": "Hoboes",
      "phoneNumber": "(619)296-1424",
      "storeHours": "Mon - Fri: 11:00 - 7:00",
      "priceRange": "$",
      "address": "3817 th Ave San Diego CA 92103",
      "storePhotos": "http://lgbtweekly.com/wp-content/uploads/2013/06/bluestocking2.jpg",
      "accesibilityRating": "Accessibility Rating 4/10",
      "mapImage": "bookstoreBlack.png",
      "popups": [
        {
          "latitude": "-45.115486725663715",
          "longitude": "48.9689968767224",
          "popupText": "Restroom"
        }
      ]
    }
  ],
  "clothing": [
    {
      "name": "Zara",
      "phoneNumber": "(858) 597-1550",
      "storeHours": "Mon - Sun: 10:00am - 9:00pm",
      "priceRange": "$",
      "address": "4545 La Jolla Village Dr, San Diego, CA 92122",
      "storePhotos": "https://igx.4sqi.net/img/general/200x200/17691721_psdZn3ULK3CnNxGN8xfedAe5aoLpUIQ2AottkGZofUY.jpg",
      "accesibilityRating": "Accessibility Rating 4/10",
      "popups": []
    },
    {
      "name": "Ralphs",
      "phoneNumber": "(855) 466-7467",
      "storeHours": "Mon - Sun: 9:00am - 9:00pm",
      "priceRange": "$$",
      "address": "7007 Friars Rd #713, San Diego, CA 92108",
      "storePhotos": "https://crabtree-valley-mall.com/sites/default/files/styles/store_image/public/Commercial_Crabtree2117-3183027437-O.jpg?itok=LuII7iF4",
      "accesibilityRating": "Accessibility Rating 6/10",
      "popups": []
    },
    {
      "name": "Forever 21",
      "phoneNumber": "(858) 812-2447",
      "storeHours": "Mon - Sun: 9:00am - 9:00pm",
      "priceRange": "$$",
      "address": "4545 La Jolla Village Dr H 10, San Diego, CA 92122",
      "storePhotos": "https://media.glassdoor.com/l/13361/forever-21-office.jpg",
      "accesibilityRating": "Accessibility Rating 6/10",
      "popups": []
    }
  ],
  "department": [
    {
      "name": "Macy's",
      "phoneNumber": "(858) 453-2060",
      "storeHours": "Mon - Fri: 10:00am - 8:00pm",
      "priceRange": "$$",
      "address": "4333 La Jolla Village Dr, San Diego, CA 92122",
      "storePhotos": "https://daks2k3a4ib2z.cloudfront.net/58a441f90f46d5e57d3de8f3/58f89d27e995e01c51e7e888_001-(1).jpg",
      "accesibilityRating": "Accessibility Rating 5/10",
      "popups": []
    },
    {
      "name": "Ross Dress For Less",
      "phoneNumber": "(858) 490-4271",
      "storeHours": "Mon - Fri: 10:00am - 8:00pm",
      "priceRange": "$",
      "address": "3998 Clairemont Mesa Blvd, San Diego, CA 92117",
      "storePhotos": "https://coxclarkcom.files.wordpress.com/2016/07/rossdress.jpg?w=875&h=400&crop=1",
      "accesibilityRating": "Accessibility Rating 4/10",
      "popups": []
    },
    {
      "name": "Nordstrom La Jolla (UTC)",
      "phoneNumber": "(858) 457-4575",
      "storeHours": "Mon - Fri: 10:00am - 8:00pm",
      "priceRange": "$$",
      "address": "34401 La Jolla Village Dr, San Diego, CA 92122",
      "storePhotos": "https://media.nbcsandiego.com/images/1200*675/Nordstrom-Generic.jpg",
      "accesibilityRating": "Accessibility Rating 6/10",
      "popups": []
    },
    {
      "name": "Trader Joes",
      "phoneNumber": "12311212",
      "storehours": "1111",
      "PriceRange": "111111",
      "address": "1111",
      "storePhotos": "http://mctrealestategroup.com/wp-content/uploads/2017/04/Verbatim-Bookstore.jpg",
      "accesibilityRating": "11111",
      "mapImage": "bookstoreBlack.png",
      "popups": []
    }
  ],
  "grocery": [
    {
      "name": "Whole Foods Market",
      "phoneNumber": "(858) 642-6700",
      "storeHours": "Mon - Sun: 9:00am - 10:00pm",
      "priceRange": "$$",
      "address": "8825 Villa La Jolla Dr, La Jolla, CA 92037",
      "storePhotos": "https://media.sandiegoreader.com/img/places/la_jolla_shores_012_t260.jpg?3de258cb5744af84a211eb26dc28fb560aae5ab6",
      "accesibilityRating": "Accessibility Rating 6/10",
      "popups": []
    },
    {
      "name": "Ralphs",
      "phoneNumber": "(858) 597-1550",
      "storeHours": "Mon - Sun: 9:00am - 12:00am",
      "priceRange": "$$",
      "address": "8657 Villa La Jolla Dr, La Jolla, CA 92037",
      "storePhotos": "https://media.nbcsandiego.com/images/652*367/Ralphs-Del-Mar-Heights-Rd.jpg",
      "accesibilityRating": "Accessibility Rating 6/10",
      "popups": []
    },
    {
      "name": "Vons",
      "phoneNumber": "(858) 455-6130",
      "storeHours": "Mon - Sun: 9:00am - 10:00pm",
      "priceRange": "$$",
      "address": "7788 Regents Rd, San Diego, CA 92122",
      "storePhotos": "http://www.amgmgt.com/sites/default/files/styles/property_photo_545px/public/photos-projects/237us-university-square/237usvons-2.jpg?itok=KA4JZXtn",
      "accesibilityRating": "Accessibility Rating 7/10",
      "popups": []
    }
  ],
  "hardware": [
    {
      "name": "Ace Downtown Hardware",
      "phoneNumber": "(619)544-9400",
      "storeHours": "Mon - Fri: 8:00 - 8:00",
      "priceRange": "$$",
      "address": "675 6th Ave San Diego CA 92101",
      "storePhotos": "http://www.welcometosandiego.com/wp-content/uploads/2010/08/Ace-Hardware-San-Diego-1024x680.jpg",
      "accesibilityRating": "Accessibility Rating 3/10",
      "popups": []
    },
    {
      "name": "Coronado Hardware Glass & Paint",
      "phoneNumber": "(619)435-2266",
      "storeHours": "Mon - Fri: 8:00 - 8:00",
      "priceRange": "$$",
      "address": "140 Orange Ave Coronado CA 92118",
      "storePhotos": "http://coronadovisitorcenter.com/static/media/uploads/lifestyle/.thumbnails/178303_383636491691987_145682180_o.jpg/178303_383636491691987_145682180_o-555x332.jpg",
      "accesibilityRating": "Accessibility Rating 4/10",
      "popups": []
    },
    {
      "name": "Northpark Hardware",
      "phoneNumber": "(619)295-2125",
      "storeHours": "Mon - Fri: 8:00 - 6:00",
      "priceRange": "$$",
      "address": "3090 University Ave San Diego CA 92104",
      "storePhotos": "https://s3-media3.fl.yelpcdn.com/bphoto/rm6d6J2U1BXPPTcrf_1G4A/l.jpg",
      "accesibilityRating": "Accessibility Rating 4/10",
      "popups": []
    },
    {
      "name": "Vince Store",
      "phoneNumber": "619-232-1212",
      "storehours": "9-5",
      "PriceRange": "$",
      "address": "1234 Vince Street",
      "storePhotos": "http://mctrealestategroup.com/wp-content/uploads/2017/04/Verbatim-Bookstore.jpg",
      "accesibilityRating": "0/10",
      "mapImage": "bookstoreBlack.png",
      "popups": []
    }
  ],
  "history": [
    {},
    {},
    {}
  ],
  "map": [
    {},
    {},
    {}
  ],
  "sporting": [
    {
      "name": "DICK'S Sporting Goods",
      "phoneNumber": "(619)523-0975",
      "storeHours": "Mon - Fri: 9:00 - 9:30",
      "priceRange": "$$",
      "address": "3265 Sports Arena Blvd San Diego CA 92110",
      "storePhotos": "http://storelocator.dickssportinggoods.com/store_photos/1026-1-l.jpg",
      "accesibilityRating": "Accessibility Rating 6/10",
      "popups": []
    },
    {
      "name": "A & B Sporting Goods",
      "phoneNumber": "(619)295-2825",
      "storeHours": "Mon - Fri: 9:00 - 5:30",
      "priceRange": "$",
      "address": "3027 University Ave San Diego CA 92104",
      "storePhotos": "http://www.explorenorthpark.com/wp-content/uploads/2016/07/ABSP1.png",
      "accesibilityRating": "Accessibility Rating 4/10",
      "popups": []
    },
    {
      "name": "Sports Palace",
      "phoneNumber": "(619)233-6084",
      "storeHours": "Mon - Fri: 10:00 - 4:00",
      "priceRange": "$$",
      "address": "339 &th Ave San Diego CA 92101",
      "storePhotos": "https://s3-media1.fl.yelpcdn.com/bphoto/CpYVD6cIU04aoeo0wFeXOg/o.jpg",
      "accesibilityRating": "Accessibility Rating 5/10",
      "popups": []
    }
  ],
  "storeProfile": [
    {},
    {},
    {}
  ]
}